City,Country,Latitude,Longitude,Max Temperature,Humidity,Cloudiness,Wind Speed,Date
Mataura,NZ,-46.19,168.86,53.58,82,93,1.21,1597804350
Daru,PG,-9.08,143.21,80.26,60,1,9.22,1597804351
Ponta do Sol,PT,32.67,-17.1,71.6,78,20,0.96,1597804351
Ushuaia,AR,-54.8,-68.3,32.0,90,40,8.05,1597804282
New Norfolk,AU,-42.78,147.06,53.01,80,35,1.99,1597804352
George Town,MY,5.41,100.34,84.2,83,20,4.7,1597804352
Tasiilaq,GL,65.61,-37.64,44.6,65,60,4.7,1597804353
Hobart,AU,-42.88,147.33,55.99,54,40,9.17,1597804303
Port Elizabeth,ZA,-33.92,25.57,48.2,87,40,17.22,1597804354
Pevek,RU,69.7,170.31,44.06,71,53,12.3,1597804098
Sabang,ID,5.89,95.32,82.54,73,88,4.59,1597804356
Medicine Hat,CA,50.05,-110.67,84.2,37,20,4.7,1597804357
Muravlenko,RU,63.79,74.52,61.77,67,93,16.84,1597804337
Te Anau,NZ,-45.42,167.72,51.8,85,85,1.43,1597804357
Atuona,PF,-9.8,-139.03,79.11,73,1,20.74,1597804358
Vaini,TO,-21.2,-175.2,73.4,100,90,12.75,1597804359
Ahipara,NZ,-35.17,173.17,60.78,80,9,13.4,1597804360
Keflavik,IS,64.0,-22.56,53.6,93,75,13.87,1597804360
Pangody,RU,65.85,74.49,62.42,62,100,16.64,1597804361
Voh,NC,-20.97,164.7,76.26,48,1,6.44,1597804361
Bambous Virieux,MU,-20.34,57.76,71.6,68,75,13.87,1597804363
Longyearbyen,SJ,78.22,15.64,41.0,80,75,12.75,1597804326
Semey,KZ,50.41,80.23,64.4,59,79,6.71,1597804364
Kruisfontein,ZA,-34.0,24.73,48.4,80,82,16.78,1597804365
Dikson,RU,73.51,80.55,55.15,72,0,11.03,1597804365
Lompoc,US,34.64,-120.46,72.0,68,1,9.17,1597804366
Qandala,SO,11.47,49.87,89.71,45,99,8.61,1597804366
Nikolskoye,RU,59.7,30.79,50.0,87,0,4.47,1597804366
Bluff,NZ,-46.6,168.33,50.41,91,94,5.53,1597804368
Szczecinek,PL,53.71,16.7,62.01,82,97,3.13,1597804368
East London,ZA,-33.02,27.91,54.25,63,82,27.87,1597804370
Mezen',RU,65.85,44.24,46.02,82,94,7.07,1597804370
Riyadh,SA,24.69,46.72,75.2,29,6,9.28,1597804305
Mossamedes,AO,-15.2,12.15,60.1,79,4,3.33,1597804372
Cherskiy,RU,68.75,161.3,46.38,80,100,7.47,1597804372
San Patricio,MX,19.22,-104.7,77.5,87,100,4.12,1597804373
Yellowknife,CA,62.46,-114.35,63.0,72,75,9.17,1597804300
Guajará,BR,-2.97,-57.67,80.89,52,88,1.74,1597804375
Portland,US,45.52,-122.68,82.4,42,20,9.17,1597804375
Yenagoa,NG,4.92,6.26,74.12,92,100,3.15,1597804375
Fortuna,US,40.6,-124.16,66.0,76,4,1.01,1597804376
Chimoré,BO,-16.98,-65.13,72.3,86,95,2.33,1597804376
Port Blair,IN,11.67,92.75,84.83,72,86,14.54,1597804377
Hithadhoo,MV,-0.6,73.08,84.33,72,45,9.51,1597804377
Concepción del Uruguay,AR,-32.48,-58.24,55.99,59,0,5.01,1597804192
Kralendijk,BQ,12.15,-68.27,80.6,94,100,4.7,1597804378
Klaksvík,FO,62.23,-6.59,46.4,87,100,1.12,1597804379
Albany,US,42.6,-73.97,66.99,95,0,4.41,1597804379
Nemuro,JP,43.32,145.57,80.6,69,20,14.99,1597804380
Avarua,CK,-21.21,-159.78,75.2,73,47,25.28,1597804381
Flinders,AU,-34.58,150.86,66.99,45,13,10.0,1597804381
Angoram,PG,-4.06,144.07,93.51,47,15,2.84,1597804381
Pyapon,MM,16.28,95.68,80.1,83,100,8.75,1597804382
Gopālpur,IN,19.27,84.92,77.7,92,100,7.43,1597804382
Thabazimbi,ZA,-24.59,27.41,34.0,53,0,9.8,1597804383
Coyhaique,CL,-45.58,-72.07,30.2,80,0,4.7,1597804370
Tiksi,RU,71.69,128.87,40.05,85,99,12.59,1597804328
Tocopilla,CL,-22.09,-70.2,54.25,68,14,9.86,1597804386
Kavaratti,IN,10.57,72.64,81.68,79,99,10.69,1597804315
Busselton,AU,-33.65,115.33,60.01,59,32,3.51,1597804302
Maricá,BR,-22.92,-42.82,75.2,83,0,2.24,1597804182
Bredasdorp,ZA,-34.53,20.04,42.8,87,95,5.82,1597804096
Qaanaaq,GL,77.48,-69.36,44.2,76,100,4.79,1597804388
Bandrele,YT,-12.91,45.19,75.2,83,56,2.24,1597804374
Mingshui,CN,36.72,117.5,84.0,79,100,7.67,1597804389
Noumea,NC,-22.28,166.46,75.2,53,0,8.05,1597804390
Talnakh,RU,69.49,88.4,68.0,37,3,8.95,1597804391
Arraial do Cabo,BR,-22.97,-42.03,73.4,83,0,13.87,1597804391
Cape Town,ZA,-33.93,18.42,48.99,81,20,1.12,1597804284
Raudeberg,NO,61.99,5.14,64.0,86,28,6.42,1597804393
Rikitea,PF,-23.12,-134.97,71.89,80,45,8.16,1597804393
Kuril'sk,RU,45.23,147.88,62.13,85,97,8.3,1597804395
San Jose,US,37.34,-121.89,93.99,29,75,8.05,1597803586
Clyde River,CA,70.47,-68.59,46.4,93,90,3.36,1597804396
Verāval,IN,20.9,70.37,82.6,83,100,18.37,1597804396
Ilulissat,GL,69.22,-51.1,44.6,56,100,6.35,1597804396
Punta Arenas,CL,-53.15,-70.92,33.8,69,86,6.93,1597804327
Pahrump,US,36.21,-115.98,102.0,15,99,1.01,1597804384
San Isidro,PE,-12.12,-77.05,59.0,87,90,13.87,1597804398
Sagae,JP,38.37,140.27,82.4,65,20,4.7,1597804398
Castro,BR,-24.79,-50.01,59.13,94,100,3.29,1597804393
Havøysund,NO,71.0,24.66,48.2,100,100,9.17,1597804399
Hermanus,ZA,-34.42,19.23,46.0,74,73,5.82,1597804400
Provideniya,RU,64.38,-173.3,53.6,76,90,11.18,1597804400
Isangel,VU,-19.55,169.27,78.8,65,40,8.05,1597804401
Lebu,CL,-37.62,-73.65,44.46,73,0,13.09,1597804401
Qaqortoq,GL,60.72,-46.03,48.2,66,0,5.82,1597804402
Kodinsk,RU,58.69,99.18,73.29,41,49,7.02,1597804402
Biak,ID,-0.91,122.88,82.27,62,30,9.84,1597804403
Puerto Ayora,EC,-0.74,-90.35,66.99,95,86,7.0,1597804403
Carnarvon,AU,-24.87,113.63,66.2,52,46,16.11,1597804403
Port Alfred,ZA,-33.59,26.89,53.56,71,84,26.78,1597804404
Saint Paul Harbor,US,57.79,-152.41,60.8,67,75,6.93,1597804405
Saldanha,ZA,-33.01,17.94,42.8,81,42,1.12,1597804405
Parkes,AU,-33.13,148.18,60.01,43,64,1.01,1597804406
Iracoubo,GF,5.48,-53.2,78.37,85,1,7.25,1597804406
Prince Rupert,CA,54.32,-130.32,59.0,82,40,4.7,1597804407
Hasaki,JP,35.73,140.83,93.0,66,75,3.36,1597804408
Korla,CN,41.76,86.15,84.0,22,65,15.88,1597804146
Butaritari,KI,3.07,172.79,83.93,69,0,9.8,1597804409
Maputo,MZ,-25.97,32.59,62.6,67,75,17.22,1597804411
La Ronge,CA,55.1,-105.28,69.8,68,20,11.41,1597804411
Santa Cruz de La Palma,ES,28.68,-17.76,72.0,83,0,10.29,1597804413
Itupiranga,BR,-5.13,-49.33,84.2,70,67,4.7,1597804413
Muros,ES,42.78,-9.06,69.01,91,100,18.01,1597804414
Norsup,VU,-16.07,167.38,82.4,69,20,4.7,1597804414
College,US,64.86,-147.8,75.2,33,40,3.51,1597804415
Tamandaré,BR,-8.76,-35.1,73.11,81,42,9.82,1597804415
Berlevåg,NO,70.86,29.09,51.03,81,85,9.42,1597804416
Narsaq,GL,60.92,-46.05,48.2,66,0,5.82,1597804416
Airai,TL,-8.93,125.41,77.13,32,8,4.81,1597804417
Tessalit,ML,20.2,1.01,92.53,21,7,10.11,1597804417
Walvis Bay,NA,-22.96,14.51,46.4,81,0,5.82,1597804418
Ayan,RU,56.45,138.17,55.62,67,100,12.66,1597804418
Hilo,US,19.73,-155.09,82.4,61,90,7.16,1597804407
Tomatlán,MX,19.93,-105.25,76.93,85,100,6.2,1597804419
Badhni Kalān,IN,30.68,75.28,85.87,78,92,4.85,1597804420
Bambanglipuro,ID,-7.95,110.28,84.15,60,18,15.3,1597804421
Cabo San Lucas,MX,22.89,-109.91,86.0,51,90,6.93,1597804421
Soyo,AO,-6.13,12.37,72.25,85,68,9.1,1597804422
Kaitangata,NZ,-46.28,169.85,53.6,84,91,5.99,1597804423
Hirara,JP,24.8,125.28,89.6,79,40,11.41,1597804423
Millinocket,US,45.66,-68.71,59.0,87,1,4.43,1597804377
Sola,VU,-13.88,167.55,79.14,87,87,13.27,1597804424
Tiznit Province,MA,29.58,-9.5,65.43,67,0,0.83,1597804425
Fort-Shevchenko,KZ,44.51,50.26,73.71,64,0,5.39,1597804425
Port Lincoln,AU,-34.73,135.87,57.6,66,7,25.84,1597804426
Cidreira,BR,-30.18,-50.21,61.77,96,93,3.98,1597804426
Ambon City,ID,-3.7,128.18,82.4,74,40,4.7,1597804427
Husavik,IS,66.04,-17.34,50.0,71,90,5.82,1597804427
Emerald,AU,-23.53,148.17,87.01,23,0,9.17,1597804171
Bend,US,44.06,-121.32,86.0,22,20,9.17,1597804428
Tirukkoyilur,IN,11.95,79.2,84.7,61,100,6.76,1597804429
Aklavik,CA,68.22,-135.01,62.6,51,20,8.05,1597804429
Luwuk,ID,-0.95,122.79,84.4,56,32,8.93,1597804429
Saint-Philippe,RE,-21.36,55.77,62.6,77,20,6.93,1597804430
Derzhavīnsk,KZ,51.1,66.32,58.42,70,52,13.47,1597804430
Quatre Cocos,MU,-20.21,57.76,71.6,68,75,13.87,1597804432
Slavonski Brod,HR,45.16,18.02,62.01,83,93,4.16,1597804432
Keti Bandar,PK,24.14,67.45,85.48,76,97,11.68,1597804433
Jamestown,US,42.1,-79.24,63.0,77,1,4.7,1597804374
Yar-Sale,RU,66.83,70.83,58.17,74,100,15.66,1597804434
Amazar,RU,53.86,120.88,67.71,31,0,4.43,1597804388
Havre-St-Pierre,CA,50.23,-63.6,60.8,93,90,6.93,1597804435
Chokurdakh,RU,70.63,147.92,38.28,91,100,10.71,1597804318
Beringovskiy,RU,63.05,179.32,54.41,57,1,5.77,1597804436
Humaitá,BR,-7.51,-63.02,85.3,40,72,2.55,1597804437
Thompson,CA,55.74,-97.86,62.6,77,90,4.7,1597804437
Neiafu,TO,-18.65,-173.98,80.6,83,75,13.87,1597804406
Bengkulu,ID,-3.8,102.27,86.54,61,14,2.3,1597804438
Tuatapere,NZ,-46.13,167.68,55.35,82,100,3.02,1597804438
Poum,NC,-20.23,164.02,69.35,70,9,2.51,1597804439
Yugorsk,RU,61.31,63.33,55.09,94,100,7.07,1597804440
Shikhazany,RU,55.56,47.39,48.2,81,0,6.71,1597804440
Svetlaya,RU,46.54,138.33,70.29,73,100,6.71,1597804442
Lincoln,US,40.8,-96.67,73.4,64,1,4.7,1597804251
Hamza,UZ,40.43,71.5,66.2,82,96,0.2,1597804443
Ribeira Grande,PT,38.52,-28.7,70.32,71,30,17.67,1597804444
Consolación del Sur,CU,22.5,-83.51,77.22,87,24,3.76,1597804445
Tiarei,PF,-17.53,-149.33,82.4,65,40,8.05,1597804446
Bumba,CD,2.18,22.47,73.58,86,100,1.83,1597804446
Grand Gaube,MU,-20.01,57.66,66.99,80,67,5.01,1597804446
Lensk,RU,60.73,114.93,69.87,32,61,4.9,1597804447
Mount Gambier,AU,-37.83,140.77,51.8,81,90,13.87,1597804432
Pangnirtung,CA,66.15,-65.71,59.23,54,100,7.05,1597804422
Murray Bridge,AU,-35.12,139.27,55.0,78,39,11.01,1597804238
Griffith,US,41.53,-87.42,70.0,56,1,4.7,1597804448
Nome,US,64.5,-165.41,70.0,67,1,8.05,1597804449
Sørkjosen,NO,69.8,20.93,50.97,72,92,5.46,1597804449
Sisimiut,GL,66.94,-53.67,52.11,65,68,2.91,1597804449
Kapaa,US,22.08,-159.32,82.0,78,90,10.29,1597804450
Khatanga,RU,71.97,102.5,54.95,54,0,16.15,1597804450
Banda Aceh,ID,5.56,95.32,85.05,64,98,3.53,1597804451
Chillán,CL,-36.61,-72.1,41.0,100,39,4.7,1597804451
Samarai,PG,-10.62,150.67,76.41,64,93,7.87,1597804452
Severo-Kuril'sk,RU,50.68,156.12,51.96,86,100,13.0,1597804454
Rome,US,43.21,-75.46,60.8,77,1,3.36,1597804454
Mar del Plata,AR,-38.0,-57.56,42.01,70,52,4.7,1597804161
Sémbé,CG,1.65,14.58,70.83,92,100,3.18,1597804455
Koumac,NC,-20.57,164.28,72.91,56,0,6.24,1597804456
City of San Pedro,PH,14.35,121.02,88.0,74,89,5.82,1597804456
Luanda,AO,-8.84,13.23,68.0,88,40,2.24,1597804457
Ambovombe,MG,-25.17,46.08,64.62,72,0,7.34,1597804458
Lesnoye,RU,58.28,35.52,47.39,83,1,2.91,1597804459
Nanortalik,GL,60.14,-45.24,47.25,70,0,2.59,1597804460
Karratha,AU,-20.74,116.85,77.95,23,0,19.89,1597804460
Houston,US,29.76,-95.36,89.01,55,75,5.82,1597803900
Kaeo,NZ,-35.1,173.78,64.0,58,57,5.01,1597804461
Zaykovo,RU,57.56,62.76,51.64,97,99,6.08,1597804462
Saskylakh,RU,71.92,114.08,48.09,60,97,8.86,1597804404
Kalmunai,LK,7.42,81.82,83.21,65,84,7.63,1597804463
Acapulco de Juárez,MX,16.86,-99.89,84.2,74,75,8.05,1597804463
Dandong,CN,40.13,124.39,78.04,91,98,10.6,1597804464
Oranjemund,NA,-28.55,16.43,51.3,64,50,14.67,1597804464
São Filipe,CV,14.9,-24.5,77.61,87,39,6.96,1597804464
Correderos,HN,15.42,-88.45,67.08,99,38,0.72,1597804466
Zagora,MA,30.35,-5.84,88.88,13,0,4.25,1597804468
Presidencia Roque Sáenz Peña,AR,-26.79,-60.44,59.86,46,0,5.68,1597804468
Kismayo,SO,-0.36,42.55,76.98,80,99,13.78,1597804468
Yumen,CN,40.28,97.2,83.53,14,0,19.8,1597804469
Caravelas,BR,-17.71,-39.25,71.58,87,4,5.97,1597804469
Tuktoyaktuk,CA,69.45,-133.04,62.6,59,40,4.7,1597804469
Adrar,MR,20.5,-10.07,97.14,13,65,15.93,1597804470
Vostok,RU,46.49,135.88,58.24,99,100,3.44,1597804470
Marsá Maţrūḩ,EG,31.35,27.25,75.2,83,20,8.05,1597804472
Porto Santo,PT,33.07,-16.34,71.6,78,40,3.36,1597804472
Pouébo,NC,-20.4,164.57,74.84,56,8,2.46,1597804473
Bubaque,GW,11.28,-15.83,80.69,84,100,15.55,1597804473
Makaha,US,21.47,-158.22,87.8,61,90,5.82,1597804473
Taku,CN,39.02,117.65,69.8,94,90,8.95,1597804474
Iqaluit,CA,63.75,-68.51,42.01,93,75,18.34,1597804474
Cockburn Town,TC,21.46,-71.14,83.52,79,0,17.65,1597804204
Atambua,ID,-9.11,124.89,85.75,38,60,1.95,1597804442
Touros,BR,-5.2,-35.46,73.4,94,40,4.7,1597804351
Takoradze,GH,4.88,-1.76,75.43,86,97,8.5,1597804363
Wahpeton,US,46.27,-96.61,71.01,77,1,6.93,1597804476
Båtsfjord,NO,70.63,29.72,50.85,82,90,9.73,1597804477
Rocha,UY,-34.48,-54.33,46.51,92,0,6.89,1597804477
Pão de Açúcar,BR,-9.75,-37.44,67.75,93,1,5.57,1597804477
Lagoa,PT,39.05,-27.98,70.18,72,20,18.88,1597804423
Hong Kong,HK,22.29,114.16,81.0,78,40,20.8,1597804366
Margate,GB,51.38,1.39,66.99,66,68,7.11,1597804478
Mahébourg,MU,-20.41,57.7,71.6,68,75,13.87,1597804479
Shelburne,CA,44.08,-80.2,55.4,87,20,4.7,1597804413
Grindavik,IS,63.84,-22.43,51.8,93,75,13.87,1597804480
Sørland,NO,67.67,12.69,52.77,81,100,10.36,1597804480
Taltal,CL,-25.4,-70.48,51.13,75,0,5.64,1597804480
Bethel,US,41.37,-73.41,64.0,82,1,5.82,1597804378
Coari,BR,-4.08,-63.14,81.0,57,22,2.86,1597804385
Port Hardy,CA,50.7,-127.42,60.8,82,75,4.7,1597804481
San Miguel de Tucumán,AR,-26.82,-65.22,53.6,58,0,5.82,1597804213
Salinópolis,BR,-0.61,-47.36,79.41,80,61,10.92,1597804458
Satipo,PE,-11.25,-74.64,74.19,64,24,1.34,1597804482
Vestmannaeyjar,IS,63.44,-20.27,51.73,88,74,18.41,1597804483
Udachny,RU,66.42,112.4,50.0,93,90,4.47,1597804354
Cap Malheureux,MU,-19.98,57.61,66.99,80,70,7.0,1597804263
Sarkand,KZ,45.41,79.92,75.42,20,0,3.06,1597804485
Norrtälje,SE,59.76,18.7,66.99,90,40,4.81,1597804389
Yicheng,CN,31.37,119.87,95.0,56,0,8.66,1597804486
Port Macquarie,AU,-31.43,152.92,72.0,30,0,3.0,1597804486
Freeport,US,40.66,-73.58,75.0,83,1,5.82,1597804469
Kostomuksha,RU,64.57,30.58,47.82,86,75,2.66,1597804487
Antalaha,MG,-14.9,50.28,65.28,85,73,6.08,1597804488
Tabas,IR,33.6,56.92,82.4,21,5,4.7,1597804489
Richards Bay,ZA,-28.78,32.04,57.02,42,0,12.01,1597804489
Kelvington,CA,52.17,-103.53,70.43,56,0,0.87,1597804490
Khovd,MN,48.01,91.64,72.21,31,100,8.63,1597804490
Puerto Colombia,CO,10.99,-74.95,82.4,88,40,6.93,1597804491
Kabwe,ZM,-14.45,28.45,57.07,68,3,4.27,1597804461
Tilichiki,RU,60.47,166.1,57.31,58,100,13.71,1597804492
Great Bend,US,38.36,-98.76,78.01,60,1,6.93,1597804493
Lander,US,42.83,-108.73,79.0,31,1,3.36,1597804493
Chiang Khong,TH,20.26,100.4,71.6,100,75,2.24,1597804494
Mokhotlong,LS,-29.29,29.07,17.74,85,0,1.45,1597804494
Boa Vista,BR,2.82,-60.67,80.6,78,20,3.36,1597804495
Nabire,ID,-3.37,135.48,82.94,78,31,1.52,1597804495
Tūkrah,LY,32.53,20.58,73.74,87,0,1.74,1597804496
Laas,IT,46.62,10.7,53.6,100,75,2.24,1597804498
Asău,RO,46.43,26.4,62.01,83,15,4.63,1597804499
Zyryanka,RU,65.75,150.85,63.68,38,25,2.19,1597804499
Constitución,CL,-35.33,-72.42,46.31,77,24,8.77,1597804499
Half Moon Bay,US,37.46,-122.43,84.99,77,1,10.29,1597804500
Atasū,KZ,48.68,71.64,64.67,48,88,18.01,1597804500
Vryburg,ZA,-26.96,24.73,28.15,82,0,9.82,1597804501
Mullingar,IE,53.53,-7.35,57.99,82,99,3.36,1597804502
Vila Velha,BR,-20.33,-40.29,75.99,83,40,9.17,1597804503
Altay,CN,47.87,88.12,65.82,56,88,4.16,1597804503
Damara,CF,4.96,18.7,77.0,88,100,3.36,1597804504
Yaan,NG,7.38,8.57,72.93,97,100,6.96,1597804410
Pisco,PE,-13.7,-76.22,62.6,77,22,4.7,1597804465
Geraldton,AU,-28.77,114.6,60.8,72,13,12.75,1597804505
Meulaboh,ID,4.14,96.13,84.69,64,96,1.54,1597804506
Mount Isa,AU,-20.73,139.5,86.0,13,3,11.41,1597804506
Kahului,US,20.89,-156.47,89.6,46,20,21.92,1597804507
Casper,US,42.87,-106.31,84.2,20,1,6.31,1597804392
Augusto Corrêa,BR,-1.02,-46.63,76.35,85,58,4.76,1597804507
Hualmay,PE,-11.1,-77.61,59.38,83,51,12.1,1597804508
Beipiao,CN,41.79,120.78,70.05,79,100,6.85,1597804508
Lavrentiya,RU,65.58,-171.0,52.83,72,77,7.27,1597804509
Khandyga,RU,62.67,135.6,66.04,38,9,3.49,1597804509
Pando,UY,-34.72,-55.95,51.8,66,0,6.93,1597804509
Belmonte,BR,-15.86,-38.88,73.4,78,20,8.05,1597804510
São José da Coroa Grande,BR,-8.9,-35.15,73.08,81,35,10.4,1597804510
Beira,MZ,-19.84,34.84,68.0,100,20,8.05,1597804510
Barrow,US,71.29,-156.79,53.6,76,1,6.93,1597804328
Madang,PG,-5.22,145.8,84.97,68,8,8.43,1597804512
Puerto Nariño,CO,-3.77,-70.38,77.0,100,0,2.06,1597804512
Varzelândia,BR,-15.7,-44.03,65.34,68,7,6.49,1597804513
Russell,US,32.35,-85.2,82.4,88,20,2.91,1597804513
Tālcher,IN,20.95,85.22,81.37,82,100,10.02,1597804513
Hailar,CN,49.2,119.7,62.33,44,0,6.58,1597804514
Manggar,ID,-2.88,108.27,84.51,70,54,17.36,1597804514
Saint George,US,37.1,-113.58,105.8,11,1,14.99,1597804515
Arrondissement de Bourg-en-Bresse,FR,46.17,5.17,61.0,90,76,0.47,1597804515
Vilhena,BR,-12.74,-60.15,73.15,35,77,3.47,1597804516
Mehamn,NO,71.04,27.85,50.34,80,94,8.01,1597804516
Gyulaháza,HU,48.13,22.12,62.94,93,98,2.82,1597804517
El Alto,PE,-4.27,-81.21,61.43,84,36,16.37,1597804518
Esperance,AU,-33.87,121.9,51.8,100,90,16.11,1597804518
Erenhot,CN,43.65,111.98,67.89,58,0,12.91,1597804518
Antsohihy,MG,-14.88,47.99,63.19,73,93,6.4,1597804519
Rio Tuba,PH,8.51,117.43,78.03,86,100,10.89,1597804520
Sfântu Gheorghe,RO,45.87,25.78,59.0,82,100,0.98,1597804520
Chui,UY,-33.7,-53.46,49.96,90,0,8.25,1597804520
Alice Springs,AU,-23.7,133.88,66.2,24,0,10.29,1597804426
Oistins,BB,13.07,-59.53,82.4,78,75,16.11,1597804448
Bandarbeyla,SO,9.49,50.81,78.04,72,87,28.83,1597804479
Bontang,ID,0.13,117.5,81.34,79,100,7.36,1597804444
Finschhafen,PG,-6.6,147.87,79.32,81,60,8.46,1597804524
Bathsheba,BB,13.22,-59.52,82.4,78,75,16.11,1597804524
Ust'-Ordynskiy,RU,52.8,104.75,73.4,49,25,13.42,1597804525
Rājūra,IN,19.78,79.37,77.54,88,100,10.2,1597804525
Birin,NP,26.89,88.07,82.4,83,75,2.24,1597804525
Yerofey Pavlovich,RU,53.97,121.97,65.07,34,0,7.02,1597804527
Belyy Yar,RU,53.6,91.39,60.8,93,75,6.71,1597804528
Fayaoué,NC,-20.65,166.53,70.54,66,34,2.98,1597804528
Guerrero Negro,MX,27.98,-114.06,79.09,63,19,12.66,1597804528
Beloha,MG,-25.17,45.05,63.91,62,0,7.43,1597804529
San Cristobal,VE,7.77,-72.22,67.71,92,97,1.03,1597804530
Abu Kamal,SY,34.45,40.92,74.7,37,0,9.62,1597804531
Stephenville,US,32.22,-98.2,82.99,32,1,4.7,1597804532
Praia da Vitória,PT,38.73,-27.07,69.8,77,20,19.84,1597804532
Itaituba,BR,-4.28,-55.98,82.99,46,67,1.19,1597804532
Kargasok,RU,59.06,80.86,60.22,85,93,9.86,1597804533
Upernavik,GL,72.79,-56.15,46.78,67,100,7.07,1597804533
Kuytun,RU,54.34,101.5,67.59,61,0,8.52,1597804535
Southbridge,US,42.08,-72.03,66.99,75,0,4.81,1597804347
Vrangel',RU,42.73,133.08,76.01,79,9,10.51,1597804271
Lafiagi,NG,8.87,5.42,73.2,93,29,4.12,1597804536
Torbay,CA,47.67,-52.73,57.99,100,90,20.8,1597804536
Auki,SB,-8.77,160.7,83.19,76,89,3.13,1597804536
Srednekolymsk,RU,67.45,153.68,56.14,46,99,4.25,1597804407
Urozhaynoye,RU,44.79,44.92,68.68,44,0,2.35,1597804537
Torrelavega,ES,43.35,-4.05,73.99,88,57,2.24,1597804538
Howard Springs,AU,-12.5,131.05,90.0,62,20,6.93,1597804538
Lorengau,PG,-2.02,147.27,85.37,67,15,8.59,1597804538
Rayachoti,IN,14.05,78.75,79.66,68,100,16.82,1597804540
Coolum Beach,AU,-26.53,153.1,81.0,30,0,5.99,1597804540
Ketchikan,US,55.34,-131.65,57.2,93,90,17.22,1597804541
Totness,SR,5.88,-56.32,78.67,89,90,10.65,1597804541
Malanje,AO,-9.54,16.34,58.62,98,6,4.05,1597804541
Faanui,PF,-16.48,-151.75,77.79,76,11,20.09,1597804542
Dingle,PH,11.0,122.67,83.64,78,98,6.15,1597804469
Broken Hill,AU,-31.95,141.43,59.0,44,90,31.09,1597804330
Poshekhon'ye,RU,58.5,39.14,45.86,79,1,4.0,1597804543
Hauterive,FR,46.09,3.45,60.8,82,100,3.36,1597804543
Hoi An,VN,15.88,108.33,87.8,66,40,2.8,1597804543
Hastings,GB,50.86,0.57,61.0,99,100,6.42,1597804408
Leningradskiy,RU,69.38,178.42,49.98,56,42,11.34,1597804544
Faya,SA,18.39,42.45,69.8,68,80,5.7,1597804544
Tazovsky,RU,67.47,78.7,58.71,73,14,11.27,1597804401
Broome,US,42.25,-75.83,64.4,63,1,5.82,1597804545
Esmeraldas,BR,-19.76,-44.31,69.8,72,0,1.12,1597804546
Mandalgovi,MN,45.76,106.27,63.23,58,50,17.31,1597804546
Kropotkin,RU,45.44,40.58,65.79,41,5,5.01,1597804547
Young,UY,-32.68,-57.63,55.99,59,0,4.0,1597804547
Kilakarai,IN,9.23,78.78,84.7,62,100,5.23,1597804548
Juneau,US,58.3,-134.42,59.0,87,90,6.93,1597804314
Shache,CN,38.42,77.24,82.29,20,100,5.28,1597804548
Kulhudhuffushi,MV,6.62,73.07,82.33,69,98,6.49,1597804550
Vila Franca do Campo,PT,37.72,-25.43,71.6,94,75,17.22,1597804447
Mokhsogollokh,RU,61.47,128.92,67.98,40,36,8.52,1597804550
Bonthe,SL,7.53,-12.51,75.97,91,70,6.82,1597804551
Whitehorse,CA,60.72,-135.05,60.8,44,40,9.17,1597804551
Port Hawkesbury,CA,45.62,-61.35,62.6,88,20,9.17,1597804552
Lüderitz,NA,-26.65,15.16,54.19,45,0,15.93,1597804552
Souillac,MU,-20.52,57.52,71.6,68,75,13.87,1597804442
Ferme-Neuve,CA,46.7,-75.45,50.7,94,0,3.69,1597804556
Rawson,AR,-43.3,-65.1,40.15,72,85,26.57,1597804557
Camacupa,AO,-12.02,17.48,53.28,39,1,4.61,1597804557
Mindelo,CV,16.89,-24.98,80.6,83,75,6.93,1597804557
Vanimo,PG,-2.67,141.3,84.29,70,100,6.58,1597804558
Ndélé,CF,8.41,20.65,70.18,96,100,4.43,1597804560
Aswān,EG,24.09,32.91,84.22,27,0,9.19,1597804389
Makokou,GA,0.57,12.86,69.39,96,96,3.15,1597804560
Bull Savanna,JM,17.89,-77.59,78.28,84,3,4.27,1597804561
Bariloche,AR,-41.15,-71.31,30.2,50,20,10.29,1597804561
Santa Cruz de la Sierra,BO,-17.8,-63.17,73.4,88,92,10.29,1597804453
Caraballeda,VE,10.61,-66.85,78.8,88,40,5.82,1597804562
Fukuechō,JP,32.69,128.84,89.6,62,40,6.93,1597804374
Fort Nelson,CA,58.81,-122.7,59.0,93,90,11.41,1597804564
Santa Rosa,PH,14.31,121.11,88.0,74,95,5.82,1597804564
Canutama,BR,-6.53,-64.38,82.8,50,45,2.13,1597804566
Laje,BR,-10.18,-40.97,64.89,73,29,8.1,1597804566
Rottingdean,GB,50.81,-0.06,64.99,95,100,5.46,1597804566
Nuuk,GL,64.18,-51.72,55.4,62,0,5.82,1597804567
Katsuura,JP,35.13,140.3,93.0,70,75,5.82,1597804567
Kenai,US,60.55,-151.26,60.8,67,75,5.82,1597804567
Balaguer,ES,41.79,0.81,71.01,77,12,3.36,1597804568
Warri,NG,5.52,5.75,74.8,89,98,4.07,1597804568
Ivanovka,KG,42.89,75.08,62.6,51,0,2.24,1597804569
Uspenka,UA,48.39,39.16,71.35,52,84,0.89,1597804569
Vengurla,IN,15.87,73.63,80.6,88,40,10.29,1597804569
Bondo,CD,3.81,23.69,70.61,98,100,1.34,1597804570
Province of Trapani,IT,37.83,12.67,75.0,88,100,3.36,1597804570
Puerto Carreño,CO,6.19,-67.49,78.08,83,100,3.49,1597804570
São João da Barra,BR,-21.64,-41.05,73.09,80,0,23.35,1597804475
Yulara,AU,-25.24,130.99,64.4,27,0,9.17,1597804571
Paamiut,GL,61.99,-49.67,46.58,67,0,6.62,1597804572
Tambopata,PE,-12.73,-69.18,80.96,51,50,2.26,1597804572
Nha Trang,VN,12.25,109.18,89.6,66,75,1.12,1597804572
Yandyki,RU,45.77,47.13,74.7,32,98,6.64,1597804573
Guayaramerín,BO,-10.84,-65.36,79.29,39,0,3.04,1597804573
Bozeman,US,45.68,-111.04,86.0,22,1,3.36,1597804573
Codrington,AU,-38.27,141.97,54.46,72,72,17.4,1597804575
Skegness,GB,53.14,0.34,63.0,100,15,3.36,1597804575
Sinnamary,GF,5.38,-52.95,78.21,85,5,7.02,1597804576
Alyangula,AU,-13.85,136.42,82.4,54,26,9.17,1597804566
Hofn,IS,64.25,-15.21,48.15,83,100,18.12,1597804576
Būndi,IN,25.44,75.64,83.12,79,95,12.06,1597804577
Kolda,SN,12.88,-14.95,75.96,97,100,2.46,1597804389
Vardø,NO,70.37,31.11,51.51,86,100,9.04,1597804577
Lata,PT,40.16,-8.33,70.0,87,12,1.99,1597804578
El Viejo,NI,12.66,-87.17,78.91,88,100,2.35,1597804578
Durango,MX,24.83,-104.83,59.72,84,100,5.1,1597804495
Kongsberg,NO,59.67,9.65,61.0,88,84,0.43,1597804579
Mineral Wells,US,32.81,-98.11,84.2,37,1,6.93,1597804580
Umm Bāb,QA,25.21,50.81,87.01,79,1,6.93,1597804580
Narrabri,AU,-30.32,149.78,68.0,32,16,18.34,1597804580
Verkhnevilyuysk,RU,63.45,120.32,66.49,47,54,6.02,1597804582
Muaná,BR,-1.53,-49.22,77.68,87,16,7.09,1597804582
Beyneu,KZ,45.32,55.2,69.8,66,0,6.2,1597804582
Erzin,TR,36.96,36.2,78.01,88,25,1.5,1597804583
Uwajima,JP,33.22,132.56,84.2,74,20,6.93,1597804583
Arandis,NA,-22.42,14.97,55.02,35,0,21.03,1597804584
Bilma,NE,18.69,12.92,90.18,15,2,10.18,1597804584
Ternate,ID,0.8,127.4,81.72,75,78,11.99,1597804586
Mangai,CD,-4.05,19.53,75.18,74,0,2.44,1597804586
Lingyuan,CN,41.24,119.4,66.61,83,100,5.03,1597804586
Atar,MR,20.52,-13.05,88.93,41,33,6.69,1597804587
Solnechnogorsk,RU,56.18,36.98,50.0,87,77,4.47,1597804587
Urusha,RU,54.05,122.9,64.0,34,0,8.25,1597804588
Plouzané,FR,48.38,-4.62,66.2,93,100,19.46,1597804588
Kavieng,PG,-2.57,150.8,83.34,75,26,10.38,1597804589
Batemans Bay,AU,-35.72,150.18,62.01,56,88,4.0,1597804589
Varhaug,NO,58.61,5.65,61.0,99,66,3.0,1597804589
Cooma,AU,-36.23,149.13,46.4,70,75,12.75,1597804590
Rio Grande,BR,-32.03,-52.1,55.0,98,31,1.99,1597804364
Valparaíso,CL,-33.04,-71.63,51.01,68,100,8.3,1597804368
Kyren,RU,51.68,102.14,73.11,48,0,1.41,1597804591
Vila,PT,42.03,-8.16,70.0,93,75,11.41,1597804591
Tarakan,ID,3.3,117.63,80.8,79,95,7.11,1597804592
Barra de Tecoanapa,MX,16.52,-98.75,81.39,83,82,8.7,1597804399
Nandyāl,IN,15.48,78.48,79.83,77,100,11.95,1597804593
Harar,ET,9.31,42.13,59.2,93,100,7.38,1597804594
Pak Phanang,TH,8.35,100.2,87.8,74,20,4.36,1597804594
Fort Collins,US,40.59,-105.08,86.0,23,20,6.93,1597804373
Jalu,LY,29.03,21.55,76.98,48,0,8.79,1597804595
Abu Dhabi,AE,24.47,54.37,91.4,75,36,3.36,1597804548
Sitka,US,57.05,-135.33,57.2,87,90,3.78,1597804495
Aktobe,KZ,50.28,57.21,46.4,81,0,4.47,1597804597
Tual,ID,-5.67,132.75,78.28,84,16,14.16,1597804598
Araouane,ML,18.9,-3.53,90.79,34,63,6.38,1597804598
Port-Gentil,GA,-0.72,8.78,75.22,88,100,14.88,1597804526
Datong,CN,40.09,113.29,70.65,52,100,4.43,1597804599
Umba,RU,66.69,34.34,50.5,82,15,4.61,1597804600
Ipilan,PH,8.84,117.9,79.18,82,100,8.55,1597804600
Wanaka,NZ,-44.7,169.15,50.22,76,88,1.36,1597804601
Tommot,RU,58.96,126.29,63.27,48,98,9.4,1597804601
Orlik,RU,52.52,99.83,66.58,49,45,2.08,1597804602
Lamu,KE,-2.27,40.9,75.54,81,99,13.27,1597804602
Kintampo,GH,8.06,-1.73,70.0,99,100,5.75,1597804602
George Town,MY,5.41,100.34,84.2,83,20,4.7,1597804603
Praia,CV,14.92,-23.51,82.4,83,40,4.7,1597804603
Solnechnyy,RU,50.72,136.63,65.48,55,29,2.51,1597804603
Waterloo,CA,43.47,-80.52,59.0,76,1,6.93,1597804604
San Miguelito,PA,9.03,-79.5,78.8,94,100,4.7,1597804604
Pavlodol'skaya,RU,43.72,44.48,51.8,93,0,8.95,1597804605
Itarema,BR,-2.92,-39.92,77.58,79,14,16.67,1597804605
Avera,US,33.19,-82.53,73.4,86,1,6.78,1597804311
São Félix do Xingu,BR,-6.64,-51.99,78.4,54,43,1.36,1597804607
Champerico,GT,14.3,-91.92,76.59,88,100,10.04,1597804607
Mbala,ZM,-8.84,31.37,58.35,50,36,7.02,1597804607
Bokovskaya,RU,49.23,41.83,67.87,70,55,0.36,1597804608
Shingū,JP,33.73,135.98,93.2,56,40,6.93,1597804608
Shenjiamen,CN,29.96,122.3,83.32,80,0,12.46,1597804609
Anadyr,RU,64.75,177.48,59.0,51,40,11.18,1597804609
Montepuez,MZ,-13.13,39.0,61.57,99,91,1.83,1597804610
Zhangjiakou,CN,40.81,114.88,70.56,61,100,3.58,1597804610
Palana,RU,59.12,159.97,52.21,98,100,6.64,1597804611
Valdivia,CL,-39.81,-73.25,33.8,100,0,2.19,1597804611
Abaeté,BR,-19.16,-45.45,69.19,66,0,6.17,1597804612
Las Vegas,US,36.17,-115.14,107.6,12,1,9.17,1597803962
Vytegra,RU,61.01,36.45,49.87,78,23,2.24,1597804613
Payson,US,40.04,-111.73,89.01,35,40,10.29,1597804613
Pacific Grove,US,36.62,-121.92,78.01,50,90,6.93,1597804319
Waddān,LY,29.16,16.14,77.49,33,0,1.83,1597804614
Changji,CN,44.02,87.32,71.6,49,100,2.24,1597804615
Bushehr,IR,28.97,50.84,86.0,74,0,9.26,1597804615
Chenzhou,CN,25.8,113.03,91.36,51,73,1.7,1597804615
Ocampo,MX,21.65,-101.5,59.74,80,100,11.92,1597804616
Turukhansk,RU,65.82,87.98,68.36,45,0,17.13,1597804616
Palauig,PH,15.44,119.9,84.79,71,99,3.94,1597804365
Marquette,US,46.53,-87.63,60.01,71,90,0.56,1597804617
Kendari,ID,-3.94,122.5,84.56,52,0,3.83,1597804449
Zaragoza,ES,41.66,-0.88,73.0,64,20,2.24,1597804500
Māngrol,IN,21.12,70.12,82.71,83,100,18.7,1597804401
Paraná,AR,-31.73,-60.52,59.0,31,0,8.99,1597804621
Hamilton,US,39.18,-84.53,66.99,93,90,8.77,1597804621
Iskateley,RU,67.68,53.15,52.05,92,100,9.06,1597804508
Martapura,ID,-3.42,114.85,84.2,58,20,2.24,1597804622
Sayyan,YE,15.17,44.32,63.97,56,80,1.07,1597804622
Cairns,AU,-16.92,145.77,80.01,61,60,10.29,1597804331
Pierre,US,44.37,-100.35,80.01,65,1,9.17,1597804623
Xuanzhou,CN,30.95,118.76,94.48,54,0,1.28,1597804624
Harboøre,DK,56.62,8.18,59.0,25,1,5.01,1597804624
Negombo,LK,7.21,79.84,82.4,78,75,4.7,1597804625
Sabzawār,IR,36.21,57.68,69.96,31,0,11.21,1597804625
Arrondissement de Bastia,FR,42.67,9.33,75.99,68,0,3.36,1597804485
Tura,IN,25.52,90.22,82.62,76,11,5.48,1597804626
Kloulklubed,PW,7.04,134.26,84.2,79,75,8.05,1597804500
Porto-Novo,BJ,6.5,2.6,75.2,94,40,10.29,1597804628
Campbell River,CA,50.02,-125.24,71.6,60,75,3.36,1597804506
Okato,NZ,-39.2,173.88,57.0,82,100,14.0,1597804629
Haines Junction,CA,60.75,-137.51,58.69,70,24,1.92,1597804630
Maple Creek,CA,49.92,-109.48,83.61,27,53,8.72,1597804630
Paracatu,BR,-17.22,-46.87,68.77,52,0,4.29,1597804598
Rūdbār,AF,30.15,62.6,78.91,26,9,15.46,1597804632
Monte Alegre de Minas,BR,-18.87,-48.88,77.0,44,1,13.87,1597804632
Petropavlovsk-Kamchatskiy,RU,53.05,158.65,59.0,72,40,15.66,1597804535
Iquique,CL,-20.22,-70.14,60.8,63,90,13.87,1597804367
Puerto Madryn,AR,-42.77,-65.04,37.96,76,12,25.57,1597804633
Teófilo Otoni,BR,-17.86,-41.51,66.78,92,59,3.18,1597804634
Teguise,ES,29.06,-13.56,71.6,83,0,25.28,1597804634
Akureyri,IS,65.68,-18.09,50.0,71,90,5.82,1597804635
Elizabeth City,US,36.29,-76.25,75.0,92,100,5.37,1597804402
Amarante do Maranhão,BR,-5.57,-46.74,81.21,41,49,3.2,1597804637
Mayor Pablo Lagerenza,PY,-19.93,-60.77,79.12,47,17,1.3,1597804637
Novotroitsk,RU,51.2,58.33,48.2,81,0,15.66,1597804638
Eqbālīyeh,IR,35.3,51.54,78.01,30,0,6.93,1597804638
Henties Bay,NA,-22.12,14.28,54.64,60,0,4.16,1597804639
Panguna,PG,-6.32,155.48,76.78,88,38,1.72,1597804640
Kalabo,ZM,-14.97,22.68,57.69,33,0,8.59,1597804640
Umluj,SA,25.02,37.27,84.63,57,20,7.47,1597804641
Gangāwati,IN,15.43,76.53,77.49,77,100,17.49,1597804642
Georgiyevskoye,RU,58.73,45.02,43.59,85,0,7.45,1597804642
Lewistown,US,40.6,-77.57,70.0,64,1,3.15,1597804643
Aasiaat,GL,68.71,-52.87,46.56,60,34,9.93,1597804644
Lamar,US,33.67,-95.58,78.01,64,1,4.7,1597804644
Alpinópolis,BR,-20.86,-46.39,68.59,55,17,8.34,1597804645
Santa Isabel Rio Negro,BR,-0.41,-65.02,76.51,83,100,1.25,1597804646
Bozhou,CN,33.88,115.77,87.13,79,87,4.54,1597804647
Samarkand,UZ,39.65,66.96,64.4,63,0,2.24,1597804648
Bay City,US,43.59,-83.89,62.6,67,1,3.36,1597804406
Padang,ID,-0.95,100.35,84.22,63,98,2.28,1597804649
Mocuba,MZ,-16.84,36.99,66.42,71,0,4.12,1597804649
Coahuayana Viejo,MX,18.73,-103.68,76.39,81,100,3.11,1597804649
Ponca City,US,36.71,-97.09,78.8,54,1,8.52,1597804535
Norman Wells,CA,65.28,-126.83,59.0,77,75,2.93,1597804650
Omboué,GA,-1.57,9.26,74.32,88,100,9.42,1597804651
Baihar,IN,22.1,80.55,76.39,92,94,6.8,1597804651
Kutum,SD,14.2,24.67,74.93,63,100,5.48,1597804651
Dongsheng,CN,39.82,109.98,69.8,47,0,7.47,1597804652
Wasilla,US,61.58,-149.44,57.99,93,90,2.04,1597804653
